{
"type": "FeatureCollection",
"crs": { "type": "name", "properties": { "name": "urn:ogc:def:crs:OGC:1.3:CRS84" } },
"features": [
{ "type": "Feature", "properties": { "Name": "Bellingham United", "description": "Men's Amateur Team", "timestamp": null, "begin": null, "end": null, "altitudeMode": null, "tessellate": -1, "extrude": 0, "visibility": -1, "drawOrder": null, "icon": null, "Team": "Y", "description_1": null }, "geometry": { "type": "Point", "coordinates": [ -122.45663620000001, 48.7480186, 0.0 ] } },
{ "type": "Feature", "properties": { "Name": "Oly Town FC", "description": "Men's Amateur Team", "timestamp": null, "begin": null, "end": null, "altitudeMode": null, "tessellate": -1, "extrude": 0, "visibility": -1, "drawOrder": null, "icon": null, "Team": "Y", "description_1": null }, "geometry": { "type": "Point", "coordinates": [ -122.97011550000001, 47.0733881, 0.0 ] } },
{ "type": "Feature", "properties": { "Name": "Olympic Force", "description": "Men's Amateur Team", "timestamp": null, "begin": null, "end": null, "altitudeMode": null, "tessellate": -1, "extrude": 0, "visibility": -1, "drawOrder": null, "icon": null, "Team": "Y", "description_1": null }, "geometry": { "type": "Point", "coordinates": [ -122.66623180000001, 47.6323024, 0.0 ] } },
{ "type": "Feature", "properties": { "Name": "Seattle Stars FC", "description": "Men's Amateur Team", "timestamp": null, "begin": null, "end": null, "altitudeMode": null, "tessellate": -1, "extrude": 0, "visibility": -1, "drawOrder": null, "icon": null, "Team": "Y", "description_1": null }, "geometry": { "type": "Point", "coordinates": [ -122.24935960000001, 47.4700614, 0.0 ] } },
{ "type": "Feature", "properties": { "Name": "Sound Sound FC", "description": "Men's Amateur Team", "timestamp": null, "begin": null, "end": null, "altitudeMode": null, "tessellate": -1, "extrude": 0, "visibility": -1, "drawOrder": null, "icon": null, "Team": "Y", "description_1": null }, "geometry": { "type": "Point", "coordinates": [ -122.5190878, 47.1576291, 0.0 ] } },
{ "type": "Feature", "properties": { "Name": "Spokane SC Shadow", "description": "Men's Amateur Team", "timestamp": null, "begin": null, "end": null, "altitudeMode": null, "tessellate": -1, "extrude": 0, "visibility": -1, "drawOrder": null, "icon": null, "Team": "Y", "description_1": null }, "geometry": { "type": "Point", "coordinates": [ -117.4683309, 47.6774091, 0.0 ] } },
{ "type": "Feature", "properties": { "Name": "Vancouver Victory", "description": "Men's Amateur Team", "timestamp": null, "begin": null, "end": null, "altitudeMode": null, "tessellate": -1, "extrude": 0, "visibility": -1, "drawOrder": null, "icon": null, "Team": "Y", "description_1": null }, "geometry": { "type": "Point", "coordinates": [ -122.527621, 45.639672, 0.0 ] } },
{ "type": "Feature", "properties": { "Name": "Yakima United FC", "description": "Men's Amateur Team", "timestamp": null, "begin": null, "end": null, "altitudeMode": null, "tessellate": -1, "extrude": 0, "visibility": -1, "drawOrder": null, "icon": null, "Team": "Y", "description_1": null }, "geometry": { "type": "Point", "coordinates": [ -120.5788749, 46.5962374, 0.0 ] } }
]
}
