{
"type": "FeatureCollection",
"crs": { "type": "name", "properties": { "name": "urn:ogc:def:crs:OGC:1.3:CRS84" } },
"features": [
{ "type": "Feature", "properties": { "Name": "Tacoma StarsÂ ", "description": "Men's Amateur Team", "timestamp": null, "begin": null, "end": null, "altitudeMode": null, "tessellate": -1, "extrude": 0, "visibility": -1, "drawOrder": null, "icon": null, "Team": "Y", "description_1": null }, "geometry": { "type": "Point", "coordinates": [ -122.23986, 47.38702, 0.0 ] } },
{ "type": "Feature", "properties": { "Name": "Tacoma Stars Reserves (Semi-Pro)", "description": "Men's Amateur Team", "timestamp": null, "begin": null, "end": null, "altitudeMode": null, "tessellate": -1, "extrude": 0, "visibility": -1, "drawOrder": null, "icon": null, "Team": "Y", "description_1": null }, "geometry": { "type": "Point", "coordinates": [ -122.408488, 47.240491, 0.0 ] } },
{ "type": "Feature", "properties": { "Name": "Bellingham United FC(Semi-Pro)", "description": "Men's Amateur Team", "timestamp": null, "begin": null, "end": null, "altitudeMode": null, "tessellate": -1, "extrude": 0, "visibility": -1, "drawOrder": null, "icon": null, "Team": "Y", "description_1": null }, "geometry": { "type": "Point", "coordinates": [ -122.458789, 48.748328, 0.0 ] } },
{ "type": "Feature", "properties": { "Name": "Oly Town Artesians", "description": "Men's Amateur Team", "timestamp": null, "begin": null, "end": null, "altitudeMode": null, "tessellate": -1, "extrude": 0, "visibility": -1, "drawOrder": null, "icon": null, "Team": "Y", "description_1": null }, "geometry": { "type": "Point", "coordinates": [ -122.9699492, 47.074338, 0.0 ] } },
{ "type": "Feature", "properties": { "Name": "Olympic Force", "description": "Men's Amateur Team", "timestamp": null, "begin": null, "end": null, "altitudeMode": null, "tessellate": -1, "extrude": 0, "visibility": -1, "drawOrder": null, "icon": null, "Team": "Y", "description_1": null }, "geometry": { "type": "Point", "coordinates": [ -122.6865887, 47.5537319, 0.0 ] } },
{ "type": "Feature", "properties": { "Name": "Snohomish Skyhawks", "description": "Men's Amateur Team", "timestamp": null, "begin": null, "end": null, "altitudeMode": null, "tessellate": -1, "extrude": 0, "visibility": -1, "drawOrder": null, "icon": null, "Team": "Y", "description_1": null }, "geometry": { "type": "Point", "coordinates": [ -122.0877933, 47.9180763, 0.0 ] } },
{ "type": "Feature", "properties": { "Name": "Sporting Everett FC", "description": "Men's Amateur Team", "timestamp": null, "begin": null, "end": null, "altitudeMode": null, "tessellate": -1, "extrude": 0, "visibility": -1, "drawOrder": null, "icon": null, "Team": "Y", "description_1": null }, "geometry": { "type": "Point", "coordinates": [ -122.1995778, 47.9807956, 0.0 ] } }
]
}
