{
"type": "FeatureCollection",
"crs": { "type": "name", "properties": { "name": "urn:ogc:def:crs:OGC:1.3:CRS84" } },
"features": [
{ "type": "Feature", "properties": { "Name": "Atlanta Vibe", "description": "", "timestamp": null, "begin": null, "end": null, "altitudeMode": null, "tessellate": -1, "extrude": 0, "visibility": -1, "drawOrder": null, "icon": null, "Team": "Y", "description_1": null }, "geometry": { "type": "Point", "coordinates": [ -84.3921017, 33.7478534, 0.0 ] } },
{ "type": "Feature", "properties": { "Name": "Vancouver", "description": "Vancouver Whitecaps Affiliate?", "timestamp": null, "begin": null, "end": null, "altitudeMode": null, "tessellate": -1, "extrude": 0, "visibility": -1, "drawOrder": null, "icon": null, "Team": "Y", "description_1": null }, "geometry": { "type": "Point", "coordinates": [ -123.1207375, 49.2827291, 0.0 ] } },
{ "type": "Feature", "properties": { "Name": "Los Angeles", "description": "Los Angeles FC Affiliate? ", "timestamp": null, "begin": null, "end": null, "altitudeMode": null, "tessellate": -1, "extrude": 0, "visibility": -1, "drawOrder": null, "icon": null, "Team": "Y", "description_1": null }, "geometry": { "type": "Point", "coordinates": [ -118.24368490000001, 34.0522342, 0.0 ] } },
{ "type": "Feature", "properties": { "Name": "San Jose", "description": "San Jose Earthquakes Affiliate", "timestamp": null, "begin": null, "end": null, "altitudeMode": null, "tessellate": -1, "extrude": 0, "visibility": -1, "drawOrder": null, "icon": null, "Team": "Y", "description_1": null }, "geometry": { "type": "Point", "coordinates": [ -121.9246119, 37.351179, 0.0 ] } },
{ "type": "Feature", "properties": { "Name": "Sacramento", "description": "Sacramento Republic FC Affiliate?", "timestamp": null, "begin": null, "end": null, "altitudeMode": null, "tessellate": -1, "extrude": 0, "visibility": -1, "drawOrder": null, "icon": null, "Team": "Y", "description_1": null }, "geometry": { "type": "Point", "coordinates": [ -121.4380579, 38.5910346, 0.0 ] } },
{ "type": "Feature", "properties": { "Name": "Toyota Stadium", "description": "FC Dallas Affiliate?", "timestamp": null, "begin": null, "end": null, "altitudeMode": null, "tessellate": -1, "extrude": 0, "visibility": -1, "drawOrder": null, "icon": null, "Team": "Y", "description_1": null }, "geometry": { "type": "Point", "coordinates": [ -96.8351719, 33.1543339, 0.0 ] } },
{ "type": "Feature", "properties": { "Name": "Indy Eleven", "description": "Current NASL team in hopes of expansion to NWSL?", "timestamp": null, "begin": null, "end": null, "altitudeMode": null, "tessellate": -1, "extrude": 0, "visibility": -1, "drawOrder": null, "icon": null, "Team": "Y", "description_1": null }, "geometry": { "type": "Point", "coordinates": [ -86.158068, 39.768403, 0.0 ] } },
{ "type": "Feature", "properties": { "Name": "Pittsburgh Riverhounds ", "description": "USL side expansion to NWSL in 2018?", "timestamp": null, "begin": null, "end": null, "altitudeMode": null, "tessellate": -1, "extrude": 0, "visibility": -1, "drawOrder": null, "icon": null, "Team": "Y", "description_1": null }, "geometry": { "type": "Point", "coordinates": [ -80.0095921, 40.4362358, 0.0 ] } },
{ "type": "Feature", "properties": { "Name": "Real Salt Lake Women", "description": "Real Salt Lake USL Affiliate to NWSL?", "timestamp": null, "begin": null, "end": null, "altitudeMode": null, "tessellate": -1, "extrude": 0, "visibility": -1, "drawOrder": null, "icon": null, "Team": "Y", "description_1": null }, "geometry": { "type": "Point", "coordinates": [ -111.8552761, 40.7508744, 0.0 ] } },
{ "type": "Feature", "properties": { "Name": "San Francisco", "description": "Spanish club FC Barcelona interested in a women's team in San Francisco or New York City", "timestamp": null, "begin": null, "end": null, "altitudeMode": null, "tessellate": -1, "extrude": 0, "visibility": -1, "drawOrder": null, "icon": null, "Team": "Y", "description_1": null }, "geometry": { "type": "Point", "coordinates": [ -122.4194155, 37.7749295, 0.0 ] } },
{ "type": "Feature", "properties": { "Name": "New York", "description": "Spanish club FC Barcelona interested in a women's team in San Francisco or New York City", "timestamp": null, "begin": null, "end": null, "altitudeMode": null, "tessellate": -1, "extrude": 0, "visibility": -1, "drawOrder": null, "icon": null, "Team": "Y", "description_1": null }, "geometry": { "type": "Point", "coordinates": [ -74.0059413, 40.7127837, 0.0 ] } }
]
}
